[
  {
    "name": "House 1",
    "latitude": 55.680825,
    "longitude": 12.516013,
    "zipCode": "1050",
    "city": "København",
    "commune": "København",
    "region": "Hovedstaden"
  },
  {
    "name": "House 2",
    "latitude": 55.73629251717131,
    "longitude": 12.568394062182847,
    "zipCode": "2100",
    "city": "København Øst",
    "commune": "København",
    "region": "Hovedstaden"
  },
  {
    "name": "House 123",
    "latitude": 55.73629251717131,
    "longitude": 12.568394062182847,
    "zipCode": "2100",
    "city": "København Øst",
    "commune": "København",
    "region": "Hovedstaden"
  },
  {
    "name": "House 3",
    "latitude": 12.516013,
    "longitude": 55.680825,
    "zipCode": "2200",
    "city": "København Nord",
    "commune": "København",
    "region": "Hovedstaden"
  },
  {
    "name": "House 4",
    "latitude": 55.6646,
    "longitude": 12.5892,
    "zipCode": "2300",
    "city": "København Syd",
    "commune": "København",
    "region": "Hovedstaden"
  },
  {
    "name": "House 5",
    "latitude": 55.6992,
    "longitude": 12.5231,
    "zipCode": "2400",
    "city": "København Nordvest",
    "commune": "København",
    "region": "Hovedstaden"
  },
  {
    "name": "House 6",
    "latitude": 55.6493,
    "longitude": 12.6111,
    "zipCode": "2450",
    "city": "København Sydvest",
    "commune": "København",
    "region": "Hovedstaden"
  },
  {
    "name": "House 7",
    "latitude": 55.6614,
    "longitude": 12.54,
    "zipCode": "1500",
    "city": "København Vest",
    "commune": "København",
    "region": "Hovedstaden"
  },
  {
    "name": "House 8",
    "latitude": 55.64771294932044,
    "longitude": 12.304523563687317,
    "zipCode": "2640",
    "city": "Taastrup",
    "commune": "Høje-Taastrup",
    "region": "Hovedstaden"
  },
  {
    "name": "Fløng Skole",
    "latitude": 55.661207,
    "longitude": 12.179162,
    "zipCode": "2640",
    "city": "Fløng",
    "commune": "Høje-Taastrup",
    "region": "Hovedstaden"
  },
  {
    "name": "Daginstitutionen Solhøj",
    "latitude": 55.649259,
    "longitude": 12.220802,
    "zipCode": "2640",
    "city": "Charlotteager",
    "commune": "Høje-Taastrup",
    "region": "Hovedstaden"
  },
  {
    "name": "Kallerup Renseanlæg",
    "latitude": 55.663447,
    "longitude": 12.197665,
    "zipCode": "2640",
    "city": "Kallerup",
    "commune": "Høje-Taastrup",
    "region": "Hovedstaden"
  },
  {
    "name": "Borgerskolen - Taastrup",
    "latitude": 55.645534,
    "longitude": 12.298098,
    "zipCode": "2640",
    "city": "Taastrup",
    "commune": "Taastrup",
    "region": "Taastrup"
  }
]